{
"type": "FeatureCollection",
"name": "GBIF_US_publishers_2023-02-21",
"features": [
{ "type": "Feature", "properties": { "popup" : {"title": "Florida Gulf Coast University", "city": "Ft Myers", "province": "Florida", "country": "US", "postalCode": "33965" }}, "geometry": { "type": "Point", "coordinates": [ -81.7734, 26.46364 ] } },
{ "type": "Feature", "properties": { "title": "Reptiles and Amphibians", "city": "Lawrence", "province": "Kansas", "country": "US", "postalCode": "66045" }, "geometry": { "type": "Point", "coordinates": [ -95.24355, 38.95945 ] } },
{ "type": "Feature", "properties": { "title": "University of Wisconsin - Whitewater Herbarium", "city": "Whitewater", "province": "WI", "country": "US", "postalCode": null }, "geometry": { "type": "Point", "coordinates": [ -88.74232, 42.83886 ] } },
{ "type": "Feature", "properties": { "title": "Texas Lutheran University Herbarium", "city": "Seguin", "province": "TX", "country": "US", "postalCode": "78155" }, "geometry": { "type": "Point", "coordinates": [ -97.9832, 29.57096 ] } },
{ "type": "Feature", "properties": { "title": "Virginia Institute of Marine Science", "city": "Gloucester Point", "province": "VA", "country": "US", "postalCode": "23062" }, "geometry": { "type": "Point", "coordinates": [ -76.50052, 37.24816 ] } },
{ "type": "Feature", "properties": { "title": "Charles Gardner Shaw Mycological Herbarium, Washington State University", "city": "Pullman", "province": "WA", "country": "US", "postalCode": "99164-6430" }, "geometry": { "type": "Point", "coordinates": [ -117.15855, 46.73154 ] } },
{ "type": "Feature", "properties": { "title": "East Tennessee State University, Museum of Natural History", "city": "Gray", "province": "Tennessee", "country": "US", "postalCode": "37615" }, "geometry": { "type": "Point", "coordinates": [ -82.4985, 36.38644 ] } },
{ "type": "Feature", "properties": { "title": "Tarleton State University Herbarium (TAC)", "city": "Stephenville", "province": null, "country": "US", "postalCode": "76402" }, "geometry": { "type": "Point", "coordinates": [ -98.87246, 31.54501 ] } },
{ "type": "Feature", "properties": { "title": "USDA-ARS Northern Plains Pollinating Insect Research Collection (NPRC)", "city": "Sidney", "province": "MT", "country": "US", "postalCode": "59270" }, "geometry": { "type": "Point", "coordinates": [ -104.15123, 47.72716 ] } },
{ "type": "Feature", "properties": { "title": "University of Mississippi", "city": "University", "province": null, "country": "US", "postalCode": "38677-1848" }, "geometry": { "type": "Point", "coordinates": [ -89.50139, 33.23209 ] } },
{ "type": "Feature", "properties": { "title": "West Virginia University Herbarium (WVA)", "city": "Morgantown", "province": "West Virginia", "country": "US", "postalCode": "26506" }, "geometry": { "type": "Point", "coordinates": [ -80.0277, 39.01938 ] } },
{ "type": "Feature", "properties": { "title": "W.S. Turrell Herbarium (MU)", "city": "Oxford", "province": "Ohio", "country": "US", "postalCode": "45056" }, "geometry": { "type": "Point", "coordinates": [ -84.736, 39.50706 ] } },
{ "type": "Feature", "properties": { "title": "Virginia Tech Massey Herbarium", "city": "Blacksburg", "province": "VA", "country": "US", "postalCode": "24061" }, "geometry": { "type": "Point", "coordinates": [ -80.4255, 37.22904 ] } },
{ "type": "Feature", "properties": { "title": "University of Northern Colorado", "city": "Greeley", "province": null, "country": "US", "postalCode": "80639" }, "geometry": { "type": "Point", "coordinates": [ -104.70441, 40.40032 ] } },
{ "type": "Feature", "properties": { "title": "Laboratory of Tree-Ring Research, University of Arizona", "city": "Tucson", "province": "AZ", "country": "US", "postalCode": "85721" }, "geometry": { "type": "Point", "coordinates": [ -110.95251, 32.22896 ] } },
{ "type": "Feature", "properties": { "title": "The Marine Genome Project", "city": "INDIAN WELLS", "province": "California", "country": "US", "postalCode": "92210" }, "geometry": { "type": "Point", "coordinates": [ -116.60217, 33.87433 ] } },
{ "type": "Feature", "properties": { "title": "Mississippi State University Herbarium (MISSA)", "city": "Mississippi State", "province": "MS", "country": "US", "postalCode": "39762" }, "geometry": { "type": "Point", "coordinates": [ -88.78811, 33.45561 ] } },
{ "type": "Feature", "properties": { "title": "Hendrix College Herbarium", "city": "Conway", "province": "Arkansas", "country": "US", "postalCode": "72032-3080" }, "geometry": { "type": "Point", "coordinates": [ -92.43925, 35.09996 ] } },
{ "type": "Feature", "properties": { "title": "Iowa Lakeside Laboratory", "city": "Milford", "province": "IA", "country": "US", "postalCode": "51351" }, "geometry": { "type": "Point", "coordinates": [ -93.31787, 41.71342 ] } },
{ "type": "Feature", "properties": { "title": "United States Fish and Wildlife Service", "city": "Albuquerque", "province": "NM", "country": "US", "postalCode": "87102" }, "geometry": { "type": "Point", "coordinates": [ -77.11997, 38.8458 ] } },
{ "type": "Feature", "properties": { "title": "Rocky Mountain Biological Laboratory", "city": "Crested Butte", "province": "Colorado", "country": "US", "postalCode": "81224" }, "geometry": { "type": "Point", "coordinates": [ -106.99047, 38.95912 ] } },
{ "type": "Feature", "properties": { "title": "Colorado Mesa University (MESA)", "city": "Grand Junction", "province": "Colorado", "country": "US", "postalCode": "81501" }, "geometry": { "type": "Point", "coordinates": [ -108.59985, 39.11554 ] } },
{ "type": "Feature", "properties": { "title": "Louisiana State University Shreveport, D. T. MacRoberts Herbarium", "city": "Baton Rouge", "province": "LA", "country": "US", "postalCode": "70803" }, "geometry": { "type": "Point", "coordinates": [ -93.71663, 32.50151 ] } },
{ "type": "Feature", "properties": { "title": "USFWS-AK", "city": "Anchorage", "province": "AK", "country": "US", "postalCode": "99503" }, "geometry": { "type": "Point", "coordinates": [ -149.86288, 61.18228 ] } },
{ "type": "Feature", "properties": { "title": "Troy University Herbarium (TROY)", "city": "Troy University", "province": "AL", "country": "US", "postalCode": "36082" }, "geometry": { "type": "Point", "coordinates": [ -85.95676, 31.79912 ] } },
{ "type": "Feature", "properties": { "title": "Arkansas Tech University Herbarium", "city": "Russellville", "province": "Arkansas", "country": "US", "postalCode": "72801-2222" }, "geometry": { "type": "Point", "coordinates": [ -93.13625, 35.29561 ] } },
{ "type": "Feature", "properties": { "title": "University of Central Arkansas", "city": "Conway", "province": "Arkansas", "country": "US", "postalCode": "72035-0001" }, "geometry": { "type": "Point", "coordinates": [ -92.45886, 35.08252 ] } },
{ "type": "Feature", "properties": { "title": "University of California, Irvine", "city": "Irvine", "province": "California", "country": "US", "postalCode": "92697" }, "geometry": { "type": "Point", "coordinates": [ -117.84262, 33.64599 ] } },
{ "type": "Feature", "properties": { "title": "Berry College", "city": "Mount Berry", "province": "Georgia", "country": "US", "postalCode": "30149" }, "geometry": { "type": "Point", "coordinates": [ -85.18866, 34.28795 ] } },
{ "type": "Feature", "properties": { "title": "Utah Tech University", "city": "St George", "province": "Utah", "country": "US", "postalCode": "84770-3875" }, "geometry": { "type": "Point", "coordinates": [ -111.73954, 37.0635 ] } },
{ "type": "Feature", "properties": { "title": "Silver Bluff Audubon Center and Sanctuary", "city": "Jackson", "province": "SC", "country": "US", "postalCode": "29831" }, "geometry": { "type": "Point", "coordinates": [ -81.84262, 33.33645 ] } },
{ "type": "Feature", "properties": { "title": "University of South Carolina Salkehatchie", "city": "Walterboro", "province": "SC", "country": "US", "postalCode": "29488" }, "geometry": { "type": "Point", "coordinates": [ -80.65346, 32.90147 ] } },
{ "type": "Feature", "properties": { "title": "University of Montana", "city": "Missoula", "province": null, "country": "US", "postalCode": "59812" }, "geometry": { "type": "Point", "coordinates": [ -113.98191, 46.86746 ] } },
{ "type": "Feature", "properties": { "title": "Philip L. Wright Zoological Museum", "city": "Missoula", "province": "Montana", "country": "US", "postalCode": "59812" }, "geometry": { "type": "Point", "coordinates": [ -113.98531, 46.86005 ] } },
{ "type": "Feature", "properties": { "title": "University of Arkansas Herbarium", "city": "Fayetteville", "province": "AR", "country": "US", "postalCode": "72701" }, "geometry": { "type": "Point", "coordinates": [ -94.16159, 36.06165 ] } },
{ "type": "Feature", "properties": { "title": "Bureau of Land Management Carson City District Herbarium", "city": "Carson City", "province": "NV", "country": "US", "postalCode": "89701" }, "geometry": { "type": "Point", "coordinates": [ -119.77634, 39.12091 ] } },
{ "type": "Feature", "properties": { "title": "Dinosaur National Monument", "city": "Dinosaur", "province": "CO", "country": "US", "postalCode": "81610" }, "geometry": { "type": "Point", "coordinates": [ -108.99055, 40.52553 ] } },
{ "type": "Feature", "properties": { "title": "Ohio Wesleyan University Museum of Natural History", "city": "Delaware", "province": "OH", "country": "US", "postalCode": "43015" }, "geometry": { "type": "Point", "coordinates": [ -83.06507, 40.29551 ] } },
{ "type": "Feature", "properties": { "title": "Orma Smith Museum of Natural History", "city": "Caldwell", "province": "Idaho", "country": "US", "postalCode": "83605" }, "geometry": { "type": "Point", "coordinates": [ -116.68854, 43.66767 ] } },
{ "type": "Feature", "properties": { "title": "UCLA Herbarium", "city": "Los Angeles", "province": null, "country": "US", "postalCode": "90095" }, "geometry": { "type": "Point", "coordinates": [ -118.44128, 34.06683 ] } },
{ "type": "Feature", "properties": { "title": "Jurica-Suchy Nature Museum", "city": "Lisle", "province": "IL", "country": "US", "postalCode": "60502" }, "geometry": { "type": "Point", "coordinates": [ -88.09541, 41.77653 ] } },
{ "type": "Feature", "properties": { "title": "University of Arkansas at Monticello", "city": "Monticello", "province": "AR", "country": "US", "postalCode": "71656-3480" }, "geometry": { "type": "Point", "coordinates": [ -91.81247, 33.58769 ] } },
{ "type": "Feature", "properties": { "title": "San Diego Botanic Garden", "city": "Encinitas", "province": "CA", "country": "US", "postalCode": "92024" }, "geometry": { "type": "Point", "coordinates": [ -117.28051, 33.05198 ] } },
{ "type": "Feature", "properties": { "title": "Arkansas Natural Heritage Commission Herbarium", "city": "Little Rock", "province": "AR", "country": "US", "postalCode": "72201" }, "geometry": { "type": "Point", "coordinates": [ -92.28268, 34.75229 ] } },
{ "type": "Feature", "properties": { "title": "Cornell University Insect Collection (CUIC)", "city": "Ithaca", "province": "New York", "country": "US", "postalCode": "14853" }, "geometry": { "type": "Point", "coordinates": [ -76.47936, 42.44633 ] } },
{ "type": "Feature", "properties": { "title": "Connecticut Agricultural Experiment Station", "city": "New Haven", "province": "Connecticut", "country": "US", "postalCode": "06511" }, "geometry": { "type": "Point", "coordinates": [ -72.91982, 41.33089 ] } },
{ "type": "Feature", "properties": { "title": "Biodiversity Heritage Library", "city": "Washington", "province": "DC", "country": "US", "postalCode": "20013" }, "geometry": { "type": "Point", "coordinates": [ -77.02604, 38.89126 ] } },
{ "type": "Feature", "properties": { "title": "Margaret H. Fulford Herbarium, University of Cincinnati (CINC)", "city": "Cincinnati", "province": "Ohio", "country": "US", "postalCode": "45221" }, "geometry": { "type": "Point", "coordinates": [ -84.51752, 39.13405 ] } },
{ "type": "Feature", "properties": { "title": "López-Uribe Lab", "city": "University Park", "province": "PA", "country": "US", "postalCode": "16802" }, "geometry": { "type": "Point", "coordinates": [ -77.86382, 40.8035 ] } },
{ "type": "Feature", "properties": { "title": "Clemson University Herbarium", "city": "Greenville", "province": "SC", "country": "US", "postalCode": "29634-0314" }, "geometry": { "type": "Point", "coordinates": [ -82.8343, 34.67803 ] } },
{ "type": "Feature", "properties": { "title": "Staten Island Museum", "city": "Staten Island", "province": "New York", "country": "US", "postalCode": "10301" }, "geometry": { "type": "Point", "coordinates": [ -74.10416, 40.64282 ] } },
{ "type": "Feature", "properties": { "title": "Bat Conservation International", "city": "Austin", "province": "Texas", "country": "US", "postalCode": "78746" }, "geometry": { "type": "Point", "coordinates": [ -97.82674, 30.30704 ] } },
{ "type": "Feature", "properties": { "title": "E.L. Reed Herbarium at Texas Tech University (TTC)", "city": "Lubbock", "province": "Texas", "country": "US", "postalCode": "79409" }, "geometry": { "type": "Point", "coordinates": [ -101.87832, 33.58512 ] } },
{ "type": "Feature", "properties": { "title": "University of Wisconsin - Madison", "city": "Madison", "province": "Wisconsin", "country": "US", "postalCode": "53706-1598" }, "geometry": { "type": "Point", "coordinates": [ -89.39163, 43.08252 ] } },
{ "type": "Feature", "properties": { "title": "Pacific Union College", "city": "Angwin", "province": null, "country": "US", "postalCode": "94508" }, "geometry": { "type": "Point", "coordinates": [ -122.44314, 38.57254 ] } },
{ "type": "Feature", "properties": { "title": "Luther College", "city": "Decorah", "province": "Iowa", "country": "US", "postalCode": "52101" }, "geometry": { "type": "Point", "coordinates": [ -91.81549, 43.30438 ] } },
{ "type": "Feature", "properties": { "title": "Purdue Entomological Research Collection", "city": "West Lafayette", "province": "IN", "country": "US", "postalCode": "47907" }, "geometry": { "type": "Point", "coordinates": [ -86.91656, 40.42349 ] } },
{ "type": "Feature", "properties": { "title": "Joseph Moore Museum, Earlham College", "city": "Richmond", "province": "IN", "country": "US", "postalCode": "47374" }, "geometry": { "type": "Point", "coordinates": [ -84.91144, 39.82396 ] } },
{ "type": "Feature", "properties": { "title": "Northern Arizona University", "city": "Flagstaff", "province": "Arizona", "country": "US", "postalCode": "86011" }, "geometry": { "type": "Point", "coordinates": [ -111.65339, 35.1917 ] } },
{ "type": "Feature", "properties": { "title": "OBIS-SEAMAP", "city": "Durham", "province": "North Carolina", "country": "US", "postalCode": "27708" }, "geometry": { "type": "Point", "coordinates": [ -78.94219, 36.00481 ] } },
{ "type": "Feature", "properties": { "title": "Naples Botanical Garden", "city": "Naples", "province": "Florida", "country": "US", "postalCode": "34112" }, "geometry": { "type": "Point", "coordinates": [ -81.77258, 26.10657 ] } },
{ "type": "Feature", "properties": { "title": "Mendocino College Coast Center Herbarium", "city": "Fort Bragg", "province": "CA", "country": "US", "postalCode": "95437" }, "geometry": { "type": "Point", "coordinates": [ -123.8112, 39.42174 ] } },
{ "type": "Feature", "properties": { "title": "Harry D. Thiers Herbarium (SFSU)", "city": "San Francisco", "province": "California", "country": "US", "postalCode": "94103" }, "geometry": { "type": "Point", "coordinates": [ -122.476, 37.72355 ] } },
{ "type": "Feature", "properties": { "title": "California Department of Food and Agriculture (CDA)", "city": "Sacramento", "province": "California", "country": "US", "postalCode": "95832-1448" }, "geometry": { "type": "Point", "coordinates": [ -121.46949, 38.47769 ] } },
{ "type": "Feature", "properties": { "title": "Mohonk Preserve", "city": "New Paltz", "province": "New York", "country": "US", "postalCode": "12561" }, "geometry": { "type": "Point", "coordinates": [ -74.18705, 41.73479 ] } },
{ "type": "Feature", "properties": { "title": "CSU Desert Studies Center", "city": "Baker", "province": "CA", "country": "US", "postalCode": "92309" }, "geometry": { "type": "Point", "coordinates": [ -116.10455, 35.14256 ] } },
{ "type": "Feature", "properties": { "title": "Millersville University James C. Parks Herbarium", "city": "Millersville", "province": "Pennsylvania", "country": "US", "postalCode": "17551" }, "geometry": { "type": "Point", "coordinates": [ -76.35551, 39.99842 ] } },
{ "type": "Feature", "properties": { "title": "Insect Sciences Museum of California", "city": "Oakland", "province": "CA", "country": "US", "postalCode": "94605" }, "geometry": { "type": "Point", "coordinates": [ -122.25477, 37.80786 ] } },
{ "type": "Feature", "properties": { "title": "Texas Oklahoma Regional Consortium of Herbaria", "city": "Fort Worth", "province": "Texas", "country": "US", "postalCode": "76107" }, "geometry": { "type": "Point", "coordinates": [ -97.36264, 32.74192 ] } },
{ "type": "Feature", "properties": { "title": "Happywhale", "city": "Santa Cruz", "province": "California", "country": "US", "postalCode": "95060" }, "geometry": { "type": "Point", "coordinates": [ -122.02446, 36.94616 ] } },
{ "type": "Feature", "properties": { "title": "Iowa State University Museum of Natural History", "city": "Ames", "province": "Iowa", "country": "US", "postalCode": "50011-1031" }, "geometry": { "type": "Point", "coordinates": [ -93.64631, 42.03013 ] } },
{ "type": "Feature", "properties": { "title": "North Carolina State University Insect Collection", "city": "Raleigh", "province": "North Carolina", "country": "US", "postalCode": null }, "geometry": { "type": "Point", "coordinates": [ -78.67265, 35.78723 ] } },
{ "type": "Feature", "properties": { "title": "Santa Barbara Botanic Garden", "city": "Santa Barbara", "province": "CA", "country": "US", "postalCode": "93105" }, "geometry": { "type": "Point", "coordinates": [ -119.70824, 34.45607 ] } },
{ "type": "Feature", "properties": { "title": "South Dakota State University, C. A. Taylor Herbarium (SDC)", "city": "Brookings", "province": "SD", "country": "US", "postalCode": "57007" }, "geometry": { "type": "Point", "coordinates": [ -96.77093, 44.42924 ] } },
{ "type": "Feature", "properties": { "title": "University of Michigan Museum of Paleontology", "city": "Ann Arbor", "province": "Michigan", "country": "US", "postalCode": "48109-1085" }, "geometry": { "type": "Point", "coordinates": [ -83.73478, 42.27898 ] } },
{ "type": "Feature", "properties": { "title": "myFOSSIL eMuseum", "city": "Gainesville", "province": "FL", "country": "US", "postalCode": "32611" }, "geometry": { "type": "Point", "coordinates": [ -100.19531, 41.9268 ] } },
{ "type": "Feature", "properties": { "title": "University of Wisconsin – Stevens Point", "city": "Stevens Point", "province": "Wisconsin", "country": "US", "postalCode": "54481" }, "geometry": { "type": "Point", "coordinates": [ -89.56904, 44.52831 ] } },
{ "type": "Feature", "properties": { "title": "Alliance for a Sustainable Amazon", "city": "Hanover", "province": "Maryland", "country": "US", "postalCode": "21076" }, "geometry": { "type": "Point", "coordinates": [ -69.09346, -12.20484 ] } },
{ "type": "Feature", "properties": { "title": "Price Institute of Parasite Research, School of Biological Sciences, University of Utah", "city": "Salt Lake City", "province": "UT", "country": "US", "postalCode": "84112-0840" }, "geometry": { "type": "Point", "coordinates": [ -111.84873, 40.76368 ] } },
{ "type": "Feature", "properties": { "title": "Biological Collections, California State University Northridge", "city": "Northridge", "province": "California", "country": "US", "postalCode": "91330-8303" }, "geometry": { "type": "Point", "coordinates": [ -118.52694, 34.23818 ] } },
{ "type": "Feature", "properties": { "title": "The University of Vermont Pringle Herbarium", "city": "Burlington", "province": "VT", "country": "US", "postalCode": "05401" }, "geometry": { "type": "Point", "coordinates": [ -73.19391, 44.4754 ] } },
{ "type": "Feature", "properties": { "title": "University of Kentucky", "city": "Lexington", "province": "Kentucky", "country": "US", "postalCode": "40546-0091" }, "geometry": { "type": "Point", "coordinates": [ -84.49242, 38.01542 ] } },
{ "type": "Feature", "properties": { "title": "California State University, Fullerton", "city": "Fullerton", "province": "CA", "country": "US", "postalCode": "92831" }, "geometry": { "type": "Point", "coordinates": [ -117.88551, 33.8797 ] } },
{ "type": "Feature", "properties": { "title": "Lord Fairfax Community College Herbarium (LFCC)", "city": "Fairfax", "province": "Virginia", "country": "US", "postalCode": "22030" }, "geometry": { "type": "Point", "coordinates": [ -77.3055, 38.82979 ] } },
{ "type": "Feature", "properties": { "title": "George Mason University Herbarium (GMUF)", "city": "Fairfax", "province": "Virginia", "country": "US", "postalCode": "22030" }, "geometry": { "type": "Point", "coordinates": [ -77.30528, 38.82951 ] } },
{ "type": "Feature", "properties": { "title": "South Dakota State University,  Severin-McDaniel Insect Research Collection", "city": "Brookings", "province": "South Dakota", "country": "US", "postalCode": "57007" }, "geometry": { "type": "Point", "coordinates": [ -96.77822, 44.32277 ] } },
{ "type": "Feature", "properties": { "title": "Sagehen Creek Field Station", "city": "Truckee", "province": "CA", "country": "US", "postalCode": "96161" }, "geometry": { "type": "Point", "coordinates": [ -120.2412, 39.43214 ] } },
{ "type": "Feature", "properties": { "title": "Black Hills State University Herbarium", "city": "Spearfish", "province": "South Dakota", "country": "US", "postalCode": "57799" }, "geometry": { "type": "Point", "coordinates": [ -103.87234, 44.49815 ] } },
{ "type": "Feature", "properties": { "title": "The Lepidopterists' Society Season Summary", "city": "Washington", "province": "DC", "country": "US", "postalCode": "20560-0001" }, "geometry": { "type": "Point", "coordinates": [ -77.04712, 38.8802 ] } },
{ "type": "Feature", "properties": { "title": "University of Georgia Collection of Arthropods", "city": "Athens", "province": "Georgia", "country": "US", "postalCode": "30602-7882" }, "geometry": { "type": "Point", "coordinates": [ -83.39584, 33.94745 ] } },
{ "type": "Feature", "properties": { "title": "Kenai National Wildlife Refuge", "city": "Soldotna", "province": "Alaska", "country": "US", "postalCode": "99669-2139" }, "geometry": { "type": "Point", "coordinates": [ -150.4846, 60.35344 ] } },
{ "type": "Feature", "properties": { "title": "Theodore  M. Sperry Herbarium", "city": "Pittsburg", "province": "KS", "country": "US", "postalCode": "66762" }, "geometry": { "type": "Point", "coordinates": [ -94.70117, 37.3913 ] } },
{ "type": "Feature", "properties": { "title": "Old Dominion University Herbarium", "city": "Norfolk", "province": null, "country": "US", "postalCode": "23529" }, "geometry": { "type": "Point", "coordinates": [ -76.55273, 36.99158 ] } },
{ "type": "Feature", "properties": { "title": "San Jose State University", "city": "San Jose", "province": "California", "country": "US", "postalCode": "95192" }, "geometry": { "type": "Point", "coordinates": [ -121.88203, 37.33233 ] } },
{ "type": "Feature", "properties": { "title": "University of California Riverside", "city": "Riverside", "province": "CA", "country": "US", "postalCode": "92521" }, "geometry": { "type": "Point", "coordinates": [ -117.32441, 33.97019 ] } },
{ "type": "Feature", "properties": { "title": "Island Conservation", "city": "Santa Cruz", "province": "CA", "country": "US", "postalCode": "95060" }, "geometry": { "type": "Point", "coordinates": [ -123.89061, 39.74774 ] } },
{ "type": "Feature", "properties": { "title": "Kenneth S. Norris Center for Natural History", "city": "Santa Cruz", "province": "California", "country": "US", "postalCode": "95064" }, "geometry": { "type": "Point", "coordinates": [ -122.06032, 36.99871 ] } },
{ "type": "Feature", "properties": { "title": "Center for Climate and Life", "city": "Palisades", "province": "New York", "country": "US", "postalCode": "10964" }, "geometry": { "type": "Point", "coordinates": [ -73.90979, 41.00442 ] } },
{ "type": "Feature", "properties": { "title": "San Diego State University Herbarium (SDSU)", "city": "San Diego", "province": "California", "country": "US", "postalCode": "92182-4614" }, "geometry": { "type": "Point", "coordinates": [ -117.07121, 32.77726 ] } },
{ "type": "Feature", "properties": { "title": "California State University, Fresno Herbarium", "city": "Fresno", "province": "CA", "country": "US", "postalCode": "93740" }, "geometry": { "type": "Point", "coordinates": [ -119.74354, 36.81218 ] } },
{ "type": "Feature", "properties": { "title": "Western Carolina University Herbarium", "city": "Cullowhee", "province": "North Carolina", "country": "US", "postalCode": "28723" }, "geometry": { "type": "Point", "coordinates": [ -82.40295, 35.4107 ] } },
{ "type": "Feature", "properties": { "title": "Symbiota Support Hub", "city": "Tempe", "province": "Arizona", "country": "US", "postalCode": "85287-4108" }, "geometry": { "type": "Point", "coordinates": [ -111.94978, 33.40027 ] } },
{ "type": "Feature", "properties": { "title": "Biocultural Diversity International", "city": "Honolulu", "province": "Hawaii", "country": "US", "postalCode": "96822" }, "geometry": { "type": "Point", "coordinates": [ -157.82959, 21.3617 ] } },
{ "type": "Feature", "properties": { "title": "California Polytechnic State University, San Luis Obispo", "city": "San Luis Obispo", "province": "CA", "country": "US", "postalCode": "93407" }, "geometry": { "type": "Point", "coordinates": [ -120.65931, 35.30224 ] } },
{ "type": "Feature", "properties": { "title": "VectorBase.org", "city": "Notre Dame", "province": "Indiana", "country": "US", "postalCode": "46556" }, "geometry": { "type": "Point", "coordinates": [ -86.23547, 41.70512 ] } },
{ "type": "Feature", "properties": { "title": "College of Marin", "city": "Kentfield", "province": "CA", "country": "US", "postalCode": "94904" }, "geometry": { "type": "Point", "coordinates": [ -121.99219, 37.57013 ] } },
{ "type": "Feature", "properties": { "title": "Montana State University-Billings Herbarium", "city": "Billings", "province": "MT", "country": "US", "postalCode": "59101" }, "geometry": { "type": "Point", "coordinates": [ -108.52383, 45.79691 ] } },
{ "type": "Feature", "properties": { "title": "University of Minnesota Insect Collection", "city": "St. Paul", "province": "MN", "country": "US", "postalCode": "55108" }, "geometry": { "type": "Point", "coordinates": [ -93.07411, 44.95393 ] } },
{ "type": "Feature", "properties": { "title": "Virginia Tech Insect Collection", "city": "Blacksburg", "province": "Virginia", "country": "US", "postalCode": "24061" }, "geometry": { "type": "Point", "coordinates": [ -80.42377, 37.22492 ] } },
{ "type": "Feature", "properties": { "title": "Kansas State University Museum of Entomological and Prairie Arthropod Research", "city": "Manhattan", "province": "Kansas", "country": "US", "postalCode": "66506" }, "geometry": { "type": "Point", "coordinates": [ -96.58854, 39.20811 ] } },
{ "type": "Feature", "properties": { "title": "Wichita State University Invertebrate Collection", "city": "Wichita", "province": "Kansas", "country": "US", "postalCode": "67260-0026" }, "geometry": { "type": "Point", "coordinates": [ -97.29316, 37.72059 ] } },
{ "type": "Feature", "properties": { "title": "University of North Carolina at Chapel Hill Herbarium (NCU)", "city": "Chapel Hill", "province": "NC", "country": "US", "postalCode": "27599-3280" }, "geometry": { "type": "Point", "coordinates": [ -79.05098, 35.90826 ] } },
{ "type": "Feature", "properties": { "title": "Brown University Herbarium", "city": "Providence", "province": null, "country": "US", "postalCode": "02912" }, "geometry": { "type": "Point", "coordinates": [ -71.42487, 41.8225 ] } },
{ "type": "Feature", "properties": { "title": "Baylor University, Mayborn Museum Complex", "city": "Waco", "province": "Texas", "country": "US", "postalCode": "76706" }, "geometry": { "type": "Point", "coordinates": [ -97.11469, 31.5521 ] } },
{ "type": "Feature", "properties": { "title": "University of New Hampshire Nature History Collections", "city": "Durham", "province": "New Hampshire", "country": "US", "postalCode": "03824" }, "geometry": { "type": "Point", "coordinates": [ -70.85083, 43.13669 ] } },
{ "type": "Feature", "properties": { "title": "MyCoPortal", "city": "Champaign", "province": "Illinois", "country": "US", "postalCode": "61820" }, "geometry": { "type": "Point", "coordinates": [ -88.24098, 40.09269 ] } },
{ "type": "Feature", "properties": { "title": "University of Tennessee Herbarium", "city": "Knoxville", "province": null, "country": "US", "postalCode": "37996-2800" }, "geometry": { "type": "Point", "coordinates": [ -83.93316, 35.95116 ] } },
{ "type": "Feature", "properties": { "title": "University of Michigan Herbarium", "city": "Ann Arbor", "province": "Michigan", "country": "US", "postalCode": "48108-2228" }, "geometry": { "type": "Point", "coordinates": [ -83.72816, 42.23645 ] } },
{ "type": "Feature", "properties": { "title": "University of Rhode Island - Biological Sciences", "city": "Kingston", "province": "Rhode Island", "country": "US", "postalCode": "02881" }, "geometry": { "type": "Point", "coordinates": [ -71.53014, 41.48666 ] } },
{ "type": "Feature", "properties": { "title": "North Carolina State University Vascular Plant Herbarium (NCSC)", "city": "Raleigh", "province": "North Carolina", "country": "US", "postalCode": "27695-7612" }, "geometry": { "type": "Point", "coordinates": [ -78.67061, 35.78691 ] } },
{ "type": "Feature", "properties": { "title": "Ralph L. Thompson Herbarium (Berea)", "city": "RICHMOND", "province": "Kentucky", "country": "US", "postalCode": "40475" }, "geometry": { "type": "Point", "coordinates": [ -84.29816, 37.73905 ] } },
{ "type": "Feature", "properties": { "title": "Eastern Kentucky University, Ronald L. Jones Herbarium (EKY)", "city": "Richmond", "province": "KY", "country": "US", "postalCode": "40475" }, "geometry": { "type": "Point", "coordinates": [ -84.29777, 37.73939 ] } },
{ "type": "Feature", "properties": { "title": "University of Guam Insect Collection", "city": "Mangilao", "province": "Guam", "country": "US", "postalCode": "96923" }, "geometry": { "type": "Point", "coordinates": [ 144.80067, 13.43059 ] } },
{ "type": "Feature", "properties": { "title": "University of Idaho William F Barr Entomological Museum", "city": "Moscow", "province": "ID", "country": "US", "postalCode": "83844-2329" }, "geometry": { "type": "Point", "coordinates": [ -117.01916, 46.72377 ] } },
{ "type": "Feature", "properties": { "title": "San Diego State University Terrestrial Arthropods Collection", "city": "San Diego", "province": "CA", "country": "US", "postalCode": "92182" }, "geometry": { "type": "Point", "coordinates": [ -117.06688, 32.77773 ] } },
{ "type": "Feature", "properties": { "title": "West Virginia Wesleyan College", "city": "Buckhannon", "province": "West Virginia", "country": "US", "postalCode": "26201" }, "geometry": { "type": "Point", "coordinates": [ -80.21791, 38.99018 ] } },
{ "type": "Feature", "properties": { "title": "Clemson University Arthropod Collection", "city": "Clemson", "province": null, "country": "US", "postalCode": "29634" }, "geometry": { "type": "Point", "coordinates": [ -82.83469, 34.67806 ] } },
{ "type": "Feature", "properties": { "title": "Broward College Insect Collection", "city": "Davie", "province": "Florida", "country": "US", "postalCode": "33314" }, "geometry": { "type": "Point", "coordinates": [ -80.23621, 26.07975 ] } },
{ "type": "Feature", "properties": { "title": "Davidson College", "city": "Davidson", "province": "North Carolina", "country": "US", "postalCode": "28078" }, "geometry": { "type": "Point", "coordinates": [ -80.84481, 35.49924 ] } },
{ "type": "Feature", "properties": { "title": "Brigham Young University, Arthropod Collection", "city": "Provo", "province": "Utah", "country": "US", "postalCode": "84602" }, "geometry": { "type": "Point", "coordinates": [ -111.62109, 39.58876 ] } },
{ "type": "Feature", "properties": { "title": "Colorado State University, C.P. Gillette Museum of Arthropod Diversity", "city": "Fort Collins", "province": "CO", "country": "US", "postalCode": "80523" }, "geometry": { "type": "Point", "coordinates": [ -105.08655, 40.57344 ] } },
{ "type": "Feature", "properties": { "title": "Bohart Museum of Entomology", "city": "Davis", "province": "CA", "country": "US", "postalCode": "95616" }, "geometry": { "type": "Point", "coordinates": [ -121.75262, 38.53529 ] } },
{ "type": "Feature", "properties": { "title": "A.J. Cook Arthropod Research Collection", "city": "East Lansing", "province": "Michigan", "country": "US", "postalCode": "48824" }, "geometry": { "type": "Point", "coordinates": [ -84.47722, 42.73098 ] } },
{ "type": "Feature", "properties": { "title": "Frost Entomological Museum", "city": "University Park", "province": "Pennsylvania", "country": "US", "postalCode": "16802" }, "geometry": { "type": "Point", "coordinates": [ -77.86231, 40.80307 ] } },
{ "type": "Feature", "properties": { "title": "DNA Learning Center", "city": "Cold Spring Harbor", "province": "New York", "country": "US", "postalCode": "11724" }, "geometry": { "type": "Point", "coordinates": [ -73.45171, 40.87306 ] } },
{ "type": "Feature", "properties": { "title": "Florida Museum of Natural History, Florida Archaeology", "city": "Gainesville", "province": "Florida", "country": "US", "postalCode": "32611-7800" }, "geometry": { "type": "Point", "coordinates": [ -82.37038, 29.63588 ] } },
{ "type": "Feature", "properties": { "title": "Minnesota State University, Mankato", "city": "Mankato", "province": "Minnesota", "country": "US", "postalCode": "56001" }, "geometry": { "type": "Point", "coordinates": [ -93.99771, 44.14551 ] } },
{ "type": "Feature", "properties": { "title": "Vermont Center for Ecostudies", "city": "Norwich", "province": "Vermont", "country": "US", "postalCode": "05055" }, "geometry": { "type": "Point", "coordinates": [ -72.31989, 43.69607 ] } },
{ "type": "Feature", "properties": { "title": "Central Michigan University Herbarium", "city": "Mount Pleasant", "province": "Michigan", "country": "US", "postalCode": "48859" }, "geometry": { "type": "Point", "coordinates": [ -84.77467, 43.58362 ] } },
{ "type": "Feature", "properties": { "title": "University of Michigan College of Literature, Science & Arts", "city": "Ann Arbor", "province": "Michigan", "country": "US", "postalCode": "48109-1003" }, "geometry": { "type": "Point", "coordinates": [ -83.74125, 42.27623 ] } },
{ "type": "Feature", "properties": { "title": "Desert Botanical Garden Herbarium", "city": "Phoenix", "province": "Arizona", "country": "US", "postalCode": "85008" }, "geometry": { "type": "Point", "coordinates": [ -111.94482, 33.46046 ] } },
{ "type": "Feature", "properties": { "title": "University of South Carolina", "city": "Columbia", "province": "South Carolina", "country": "US", "postalCode": "29208" }, "geometry": { "type": "Point", "coordinates": [ -81.02959, 33.99514 ] } },
{ "type": "Feature", "properties": { "title": "Austin Peay State University Natural History Collections", "city": "Clarksville", "province": "Tennessee", "country": "US", "postalCode": "37044" }, "geometry": { "type": "Point", "coordinates": [ -87.35076, 36.53267 ] } },
{ "type": "Feature", "properties": { "title": "Appalachian State University", "city": "Boone", "province": "North Carolina", "country": "US", "postalCode": "28608" }, "geometry": { "type": "Point", "coordinates": [ -81.68199, 36.21453 ] } },
{ "type": "Feature", "properties": { "title": "University of New Mexico Paleontology Collections (UNMP)", "city": "Albuquerque", "province": "New M", "country": "US", "postalCode": "87131-0001" }, "geometry": { "type": "Point", "coordinates": [ -106.62283, 35.08306 ] } },
{ "type": "Feature", "properties": { "title": "T. L. Hankinson Vertebrate Museum, Eastern Michigan University", "city": "Ypsilanti", "province": "Michigan", "country": "US", "postalCode": "48197" }, "geometry": { "type": "Point", "coordinates": [ -83.62671, 42.2474 ] } },
{ "type": "Feature", "properties": { "title": "University of New Mexico Herbarium (UNM)", "city": "Albuquerque", "province": "New Mexico", "country": "US", "postalCode": "87131" }, "geometry": { "type": "Point", "coordinates": [ -106.41357, 34.86009 ] } },
{ "type": "Feature", "properties": { "title": "Worcester Society of Natural History d.b.a. EcoTarium", "city": "Worchester", "province": "Massachusetts", "country": "US", "postalCode": "01604" }, "geometry": { "type": "Point", "coordinates": [ -71.7948, 42.26524 ] } },
{ "type": "Feature", "properties": { "title": "George B. Dorr Museum of Natural History, College of the Atlantic", "city": "Bar Harbor", "province": "Maine", "country": "US", "postalCode": "04609" }, "geometry": { "type": "Point", "coordinates": [ -68.2225, 44.39473 ] } },
{ "type": "Feature", "properties": { "title": "California State University, Long Beach", "city": "Long Beach", "province": "California", "country": "US", "postalCode": "90840" }, "geometry": { "type": "Point", "coordinates": [ -118.11511, 33.78228 ] } },
{ "type": "Feature", "properties": { "title": "USF Water Institute", "city": "Tampa", "province": "Florida", "country": "US", "postalCode": "33620" }, "geometry": { "type": "Point", "coordinates": [ -82.41602, 28.05476 ] } },
{ "type": "Feature", "properties": { "title": "Arizona State University Biocollections", "city": "Tempe", "province": "Arizona", "country": "US", "postalCode": "85287-4108" }, "geometry": { "type": "Point", "coordinates": [ -111.94994, 33.40091 ] } },
{ "type": "Feature", "properties": { "title": "University of Florida Environmental Archaeology", "city": "Gainesville", "province": "FL", "country": "US", "postalCode": "32611-7800" }, "geometry": { "type": "Point", "coordinates": [ -82.34601, 29.64452 ] } },
{ "type": "Feature", "properties": { "title": "University of Delaware, Department of Entomology and Wildlife Ecology", "city": "Newark", "province": "DE", "country": "US", "postalCode": "19716" }, "geometry": { "type": "Point", "coordinates": [ -75.7528, 39.67795 ] } },
{ "type": "Feature", "properties": { "title": "Florida State University Coastal and Marine Laboratory", "city": "St. Teresa", "province": "Florida", "country": "US", "postalCode": "32358" }, "geometry": { "type": "Point", "coordinates": [ -84.51291, 29.91614 ] } },
{ "type": "Feature", "properties": { "title": "South Dakota School of Mines and Technology, Museum of Geology and Paleontology Research Laboratory", "city": "Rapid City", "province": "SD", "country": "US", "postalCode": "57701" }, "geometry": { "type": "Point", "coordinates": [ -103.20847, 44.07368 ] } },
{ "type": "Feature", "properties": { "title": "Culture Collection of Algae at University of Texas at Austin", "city": "Austin", "province": "TX", "country": "US", "postalCode": "78712" }, "geometry": { "type": "Point", "coordinates": [ -97.74574, 30.2879 ] } },
{ "type": "Feature", "properties": { "title": "iDigBio", "city": "Gainesville", "province": null, "country": "US", "postalCode": "FL/32611-7800" }, "geometry": { "type": "Point", "coordinates": [ -82.34733, 29.64348 ] } },
{ "type": "Feature", "properties": { "title": "Chicago Academy of Sciences", "city": "Chicago", "province": "Illinois", "country": "US", "postalCode": "60614" }, "geometry": { "type": "Point", "coordinates": [ -87.50011, 42.30063 ] } },
{ "type": "Feature", "properties": { "title": "Angelo State Natural History Collections (ASNHC)", "city": "San Angelo", "province": null, "country": "US", "postalCode": "76909-0890" }, "geometry": { "type": "Point", "coordinates": [ -100.46273, 31.44138 ] } },
{ "type": "Feature", "properties": { "title": "Kathryn Kalmbach Herbarium (Denver Botanic Gardens)", "city": "Denver", "province": null, "country": "US", "postalCode": "CO 80206" }, "geometry": { "type": "Point", "coordinates": [ -104.95996, 39.73235 ] } },
{ "type": "Feature", "properties": { "title": "Sam Mitchel Herbarium of Fungi (Denver Botanic Gardens)", "city": "Denver", "province": null, "country": "US", "postalCode": "CO 80206" }, "geometry": { "type": "Point", "coordinates": [ -104.95982, 39.73206 ] } },
{ "type": "Feature", "properties": { "title": "Vanderbilt University", "city": "Nashville", "province": "Tennessee", "country": "US", "postalCode": "37235" }, "geometry": { "type": "Point", "coordinates": [ -86.80375, 36.1487 ] } },
{ "type": "Feature", "properties": { "title": "Museum of Biological Diversity, The Ohio State University", "city": null, "province": null, "country": "US", "postalCode": null }, "geometry": { "type": "Point", "coordinates": [ -83.04398, 9.99714 ] } },
{ "type": "Feature", "properties": { "title": "Cheadle Center for Biodiversity and Ecological Restoration", "city": "Santa Barbara", "province": null, "country": "US", "postalCode": "CA/93106-9615" }, "geometry": { "type": "Point", "coordinates": [ -119.85362, 34.4195 ] } },
{ "type": "Feature", "properties": { "title": "VertNet", "city": null, "province": null, "country": "US", "postalCode": null }, "geometry": { "type": "Point", "coordinates": [ -95.24364, 38.95844 ] } },
{ "type": "Feature", "properties": { "title": "Cornell Lab of Ornithology", "city": "Ithaca", "province": null, "country": "US", "postalCode": "NY/14850" }, "geometry": { "type": "Point", "coordinates": [ -76.45109, 42.47999 ] } },
{ "type": "Feature", "properties": { "title": "Western New Mexico University", "city": "Silver City", "province": null, "country": "US", "postalCode": "NM/88061" }, "geometry": { "type": "Point", "coordinates": [ -108.28206, 32.77651 ] } },
{ "type": "Feature", "properties": { "title": "University of Wyoming Museum of Vertebrates", "city": "Laramie", "province": null, "country": "US", "postalCode": "WY/82071" }, "geometry": { "type": "Point", "coordinates": [ -105.58408, 41.31483 ] } },
{ "type": "Feature", "properties": { "title": "Moore Laboratory of Zoology", "city": "Los Angeles", "province": null, "country": "US", "postalCode": "CA/90041" }, "geometry": { "type": "Point", "coordinates": [ -118.21001, 34.12655 ] } },
{ "type": "Feature", "properties": { "title": "Perot Museum of Nature and Science", "city": "Dallas", "province": null, "country": "US", "postalCode": "Texas 75201-1704" }, "geometry": { "type": "Point", "coordinates": [ -96.80668, 32.7869 ] } },
{ "type": "Feature", "properties": { "title": "Georgia Southern University", "city": "Statesboro", "province": null, "country": "US", "postalCode": "GA / 30460-8042" }, "geometry": { "type": "Point", "coordinates": [ -81.78003, 32.42596 ] } },
{ "type": "Feature", "properties": { "title": "University of Alaska Museum of the North", "city": "Fairbanks", "province": null, "country": "US", "postalCode": "AK/99775" }, "geometry": { "type": "Point", "coordinates": [ -147.84243, 64.85842 ] } },
{ "type": "Feature", "properties": { "title": "Emporia State University", "city": "Emporia", "province": null, "country": "US", "postalCode": "KS 66801" }, "geometry": { "type": "Point", "coordinates": [ -96.18114, 38.41441 ] } },
{ "type": "Feature", "properties": { "title": "Cleveland Museum of Natural History", "city": "Cleveland", "province": "Ohio", "country": "US", "postalCode": "44106" }, "geometry": { "type": "Point", "coordinates": [ -81.61199, 41.51104 ] } },
{ "type": "Feature", "properties": { "title": "Tall Timbers Research Station and Land Conservancy", "city": "Tallahassee", "province": null, "country": "US", "postalCode": "Florida 32312" }, "geometry": { "type": "Point", "coordinates": [ -84.20891, 30.65631 ] } },
{ "type": "Feature", "properties": { "title": "Humboldt State University", "city": "Arcata", "province": null, "country": "US", "postalCode": "CA, 95521" }, "geometry": { "type": "Point", "coordinates": [ -124.07925, 40.87589 ] } },
{ "type": "Feature", "properties": { "title": "Cincinnati Museum Center", "city": null, "province": null, "country": "US", "postalCode": null }, "geometry": { "type": "Point", "coordinates": [ -84.53763, 39.10992 ] } },
{ "type": "Feature", "properties": { "title": "Museum of Natural and Cultural History - University of Oregon", "city": "Eugene, OR", "province": null, "country": "US", "postalCode": "97403-1224" }, "geometry": { "type": "Point", "coordinates": [ -123.06808, 44.04301 ] } },
{ "type": "Feature", "properties": { "title": "Illinois State University", "city": null, "province": null, "country": "US", "postalCode": null }, "geometry": { "type": "Point", "coordinates": [ -88.98855, 40.50995 ] } },
{ "type": "Feature", "properties": { "title": "Ohio State University Insect Collection", "city": "Ohio", "province": null, "country": "US", "postalCode": null }, "geometry": { "type": "Point", "coordinates": [ -83.02001, 39.99595 ] } },
{ "type": "Feature", "properties": { "title": "Tulane University Museum of Natural History", "city": "Tulane", "province": null, "country": "US", "postalCode": null }, "geometry": { "type": "Point", "coordinates": [ -89.95356, 29.8912 ] } },
{ "type": "Feature", "properties": { "title": "University of Washington Burke Museum", "city": "Seattle", "province": null, "country": "US", "postalCode": null }, "geometry": { "type": "Point", "coordinates": [ -122.31066, 47.66063 ] } },
{ "type": "Feature", "properties": { "title": "Colorado State University Herbarium (CSU)", "city": "Colorado", "province": null, "country": "US", "postalCode": null }, "geometry": { "type": "Point", "coordinates": [ -105.08789, 40.57324 ] } },
{ "type": "Feature", "properties": { "title": "Berkeley Natural History Museums", "city": "Berkeley", "province": null, "country": "US", "postalCode": null }, "geometry": { "type": "Point", "coordinates": [ -122.25121, 37.87371 ] } },
{ "type": "Feature", "properties": { "title": "New Mexico Biodiversity Collections Consortium", "city": "Albuquerque", "province": null, "country": "US", "postalCode": null }, "geometry": { "type": "Point", "coordinates": [ -106.62178, 35.08323 ] } },
{ "type": "Feature", "properties": { "title": "University of Nebraska - Lincoln", "city": "Lincoln", "province": null, "country": "US", "postalCode": null }, "geometry": { "type": "Point", "coordinates": [ -96.70258, 40.81846 ] } },
{ "type": "Feature", "properties": { "title": "USDA-ARS Pollinating Insect-Biology, Management, Systematics Research", "city": "Logan", "province": "Utah", "country": "US", "postalCode": null }, "geometry": { "type": "Point", "coordinates": [ -77.03203, 38.88756 ] } },
{ "type": "Feature", "properties": { "title": "University of Connecticut", "city": "Storrs", "province": null, "country": "US", "postalCode": null }, "geometry": { "type": "Point", "coordinates": [ -72.25619, 41.80978 ] } },
{ "type": "Feature", "properties": { "title": "UC Riverside Entomology Collection", "city": "Riverside, CA", "province": null, "country": "US", "postalCode": null }, "geometry": { "type": "Point", "coordinates": [ -117.33112, 33.97588 ] } },
{ "type": "Feature", "properties": { "title": "Texas A&M University Biodiversity Research and Teaching Collections", "city": null, "province": null, "country": "US", "postalCode": null }, "geometry": { "type": "Point", "coordinates": [ -96.35138, 30.60526 ] } },
{ "type": "Feature", "properties": { "title": "Yale University Peabody Museum", "city": "New Haven", "province": null, "country": "US", "postalCode": null }, "geometry": { "type": "Point", "coordinates": [ -72.92945, 41.30938 ] } },
{ "type": "Feature", "properties": { "title": "Michigan State University Museum", "city": "Michigan", "province": null, "country": "US", "postalCode": null }, "geometry": { "type": "Point", "coordinates": [ -84.48362, 42.73181 ] } },
{ "type": "Feature", "properties": { "title": "Louisiana State University Herbarium", "city": "Louisiana", "province": null, "country": "US", "postalCode": null }, "geometry": { "type": "Point", "coordinates": [ -91.19531, 30.41015 ] } },
{ "type": "Feature", "properties": { "title": "Michigan State University Herbarium", "city": "Michigan", "province": null, "country": "US", "postalCode": null }, "geometry": { "type": "Point", "coordinates": [ -84.47764, 42.71873 ] } },
{ "type": "Feature", "properties": { "title": "University of Nevada, Reno", "city": null, "province": null, "country": "US", "postalCode": null }, "geometry": { "type": "Point", "coordinates": [ -119.81941, 39.54585 ] } },
{ "type": "Feature", "properties": { "title": "Harvard University Herbaria", "city": "Middlesex", "province": null, "country": "US", "postalCode": null }, "geometry": { "type": "Point", "coordinates": [ -71.11459, 42.3787 ] } },
{ "type": "Feature", "properties": { "title": "Natural History Museum of Los Angeles County", "city": "Los Angeles", "province": null, "country": "US", "postalCode": null }, "geometry": { "type": "Point", "coordinates": [ -118.28881, 34.01713 ] } },
{ "type": "Feature", "properties": { "title": "University of Colorado Museum of Natural History", "city": "Boulder", "province": null, "country": "US", "postalCode": null }, "geometry": { "type": "Point", "coordinates": [ -105.27279, 40.0069 ] } },
{ "type": "Feature", "properties": { "title": "University of Texas at El Paso Biodiversity Collections", "city": "El Paso", "province": null, "country": "US", "postalCode": null }, "geometry": { "type": "Point", "coordinates": [ -106.50628, 31.7692 ] } },
{ "type": "Feature", "properties": { "title": "Sam Noble Oklahoma Museum of Natural History", "city": "Norman", "province": null, "country": "US", "postalCode": null }, "geometry": { "type": "Point", "coordinates": [ -97.44919, 35.19445 ] } },
{ "type": "Feature", "properties": { "title": "University of Arizona Herbarium", "city": "Tucson", "province": null, "country": "US", "postalCode": null }, "geometry": { "type": "Point", "coordinates": [ -110.95355, 32.23067 ] } },
{ "type": "Feature", "properties": { "title": "California Academy of Sciences", "city": "San Francisco, CA", "province": null, "country": "US", "postalCode": "94118" }, "geometry": { "type": "Point", "coordinates": [ -122.4661, 37.76985 ] } },
{ "type": "Feature", "properties": { "title": "North Carolina State Museum of Natural Sciences", "city": "Raleigh", "province": null, "country": "US", "postalCode": null }, "geometry": { "type": "Point", "coordinates": [ -78.63955, 35.78227 ] } },
{ "type": "Feature", "properties": { "title": "University of Michigan Museum of Zoology", "city": "Ann Arbor", "province": "Michigan", "country": "US", "postalCode": "48108-2228" }, "geometry": { "type": "Point", "coordinates": [ -83.73443, 42.2784 ] } },
{ "type": "Feature", "properties": { "title": "Santa Barbara Museum of Natural History", "city": "Santa Barbara", "province": null, "country": "US", "postalCode": null }, "geometry": { "type": "Point", "coordinates": [ -119.71549, 34.44088 ] } },
{ "type": "Feature", "properties": { "title": "University of Alabama Biodiversity and Systematics", "city": "Tuscaloosa", "province": null, "country": "US", "postalCode": null }, "geometry": { "type": "Point", "coordinates": [ -87.54329, 33.2192 ] } },
{ "type": "Feature", "properties": { "title": "Field Museum", "city": "Chicago, Illinois", "province": null, "country": "US", "postalCode": null }, "geometry": { "type": "Point", "coordinates": [ -87.61723, 41.86616 ] } },
{ "type": "Feature", "properties": { "title": "Charles R. Conner Museum", "city": "Pullman", "province": null, "country": "US", "postalCode": null }, "geometry": { "type": "Point", "coordinates": [ -117.16538, 46.72955 ] } },
{ "type": "Feature", "properties": { "title": "Western Foundation of Vertebrate Zoology", "city": "Camarillo", "province": null, "country": "US", "postalCode": null }, "geometry": { "type": "Point", "coordinates": [ -119.03944, 34.20795 ] } },
{ "type": "Feature", "properties": { "title": "Milwaukee Public Museum", "city": null, "province": null, "country": "US", "postalCode": null }, "geometry": { "type": "Point", "coordinates": [ -87.92159, 43.04073 ] } },
{ "type": "Feature", "properties": { "title": "Florida Museum of Natural History", "city": "Gainesville, FL", "province": null, "country": "US", "postalCode": "32611" }, "geometry": { "type": "Point", "coordinates": [ -82.3704, 29.63591 ] } },
{ "type": "Feature", "properties": { "title": "San Diego Natural History Museum", "city": "San Diego", "province": null, "country": "US", "postalCode": null }, "geometry": { "type": "Point", "coordinates": [ -117.14729, 32.73207 ] } },
{ "type": "Feature", "properties": { "title": "Museum of Vertebrate Zoology", "city": "Berkeley", "province": "California", "country": "US", "postalCode": "94720-3160" }, "geometry": { "type": "Point", "coordinates": [ -122.26259, 37.87136 ] } },
{ "type": "Feature", "properties": { "title": "Oklahoma Vascular Plants Database Provider", "city": "Norman", "province": null, "country": "US", "postalCode": null }, "geometry": { "type": "Point", "coordinates": [ -97.44027, 35.1894 ] } },
{ "type": "Feature", "properties": { "title": "Bernice Pauahi Bishop Museum", "city": "Honolulu", "province": null, "country": "US", "postalCode": null }, "geometry": { "type": "Point", "coordinates": [ -157.87077, 21.33296 ] } },
{ "type": "Feature", "properties": { "title": "University of Minnesota Bell Museum", "city": "Minneapolis", "province": null, "country": "US", "postalCode": null }, "geometry": { "type": "Point", "coordinates": [ -93.23585, 44.97895 ] } },
{ "type": "Feature", "properties": { "title": "Museum of Southwestern Biology", "city": "Albuquerque", "province": null, "country": "US", "postalCode": null }, "geometry": { "type": "Point", "coordinates": [ -106.62176, 35.08331 ] } },
{ "type": "Feature", "properties": { "title": "Fort Hays Sternberg Museum of Natural History", "city": "Kansas", "province": null, "country": "US", "postalCode": null }, "geometry": { "type": "Point", "coordinates": [ -99.33991, 38.87204 ] } },
{ "type": "Feature", "properties": { "title": "University of Nebraska State Museum", "city": "Nebraska", "province": null, "country": "US", "postalCode": null }, "geometry": { "type": "Point", "coordinates": [ -96.70258, 40.81846 ] } },
{ "type": "Feature", "properties": { "title": "Borror Laboratory of Bioacoustics", "city": "Columbus, Ohio", "province": null, "country": "US", "postalCode": null }, "geometry": { "type": "Point", "coordinates": [ -83.04398, 39.99714 ] } },
{ "type": "Feature", "properties": { "title": "Delaware Museum of Natural History", "city": "Wilmington", "province": null, "country": "US", "postalCode": null }, "geometry": { "type": "Point", "coordinates": [ -75.61199, 39.79819 ] } },
{ "type": "Feature", "properties": { "title": "NatureServe", "city": "Arlington", "province": null, "country": "US", "postalCode": null }, "geometry": { "type": "Point", "coordinates": [ -77.0697, 38.89527 ] } },
{ "type": "Feature", "properties": { "title": "New Mexico Museum of Natural History and Science", "city": null, "province": null, "country": "US", "postalCode": null }, "geometry": { "type": "Point", "coordinates": [ -106.66561, 35.09796 ] } },
{ "type": "Feature", "properties": { "title": "Oregon State University", "city": "Corvallis", "province": null, "country": "US", "postalCode": "97331" }, "geometry": { "type": "Point", "coordinates": [ -123.2827, 44.56622 ] } },
{ "type": "Feature", "properties": { "title": "Natural Science Research Laboratory, Museum of Texas Tech University (TTU)", "city": "Lubbock", "province": null, "country": "US", "postalCode": null }, "geometry": { "type": "Point", "coordinates": [ -101.87889, -33.58528 ] } },
{ "type": "Feature", "properties": { "title": "University of Arkansas", "city": "Arkansas", "province": null, "country": "US", "postalCode": null }, "geometry": { "type": "Point", "coordinates": [ -94.17977, 36.09677 ] } },
{ "type": "Feature", "properties": { "title": "Museum of Comparative Zoology, Harvard University", "city": "Cambridge", "province": null, "country": "US", "postalCode": null }, "geometry": { "type": "Point", "coordinates": [ -71.11535, 42.37901 ] } },
{ "type": "Feature", "properties": { "title": "University of Kansas Biodiversity Institute", "city": "Lawrence, KS", "province": null, "country": "US", "postalCode": null }, "geometry": { "type": "Point", "coordinates": [ -95.24383, 38.95851 ] } },
{ "type": "Feature", "properties": { "title": "National Museum of Natural History, Smithsonian Institution", "city": "Washington DC", "province": null, "country": "US", "postalCode": null }, "geometry": { "type": "Point", "coordinates": [ -77.02579, 38.89133 ] } },
{ "type": "Feature", "properties": { "title": "Fairchild Tropical Botanic Garden", "city": "Coral Gables", "province": null, "country": "US", "postalCode": null }, "geometry": { "type": "Point", "coordinates": [ -80.28302, 25.66098 ] } },
{ "type": "Feature", "properties": { "title": "UCLA-Dickey Collection (UCLA-Dickey)", "city": "Los Angeles", "province": null, "country": "US", "postalCode": null }, "geometry": { "type": "Point", "coordinates": [ -118.44031, 34.06922 ] } },
{ "type": "Feature", "properties": { "title": "Carnegie Museums", "city": "Pittsburgh", "province": null, "country": "US", "postalCode": null }, "geometry": { "type": "Point", "coordinates": [ -79.95242, 40.44328 ] } },
{ "type": "Feature", "properties": { "title": "Louisiana State University Museum of Natural Science", "city": "Louisiana", "province": null, "country": "US", "postalCode": null }, "geometry": { "type": "Point", "coordinates": [ -91.1801, 30.41537 ] } },
{ "type": "Feature", "properties": { "title": "Botanical Research Institute of Texas", "city": "Fort Worth", "province": null, "country": "US", "postalCode": null }, "geometry": { "type": "Point", "coordinates": [ -97.32747, 32.75609 ] } },
{ "type": "Feature", "properties": { "title": "University of Tennessee, Knoxville", "city": "Knoxville", "province": null, "country": "US", "postalCode": null }, "geometry": { "type": "Point", "coordinates": [ -83.9206, 35.9609 ] } },
{ "type": "Feature", "properties": { "title": "Marine Science Institute, UCSB", "city": "Santa Barbara", "province": null, "country": "US", "postalCode": null }, "geometry": { "type": "Point", "coordinates": [ -119.8497, 34.41359 ] } },
{ "type": "Feature", "properties": { "title": "American Museum of Natural History", "city": null, "province": null, "country": "US", "postalCode": null }, "geometry": { "type": "Point", "coordinates": [ -73.97357, 40.78086 ] } },
{ "type": "Feature", "properties": { "title": "University of Texas-Arlington", "city": "Arlington", "province": null, "country": "US", "postalCode": null }, "geometry": { "type": "Point", "coordinates": [ -97.11275, 32.72881 ] } },
{ "type": "Feature", "properties": { "title": "Georgia Museum of Natural History (GMNH)", "city": "Georgia", "province": null, "country": "US", "postalCode": null }, "geometry": { "type": "Point", "coordinates": [ -83.37482, 33.95675 ] } },
{ "type": "Feature", "properties": { "title": "Duke University Herbarium", "city": "Durham", "province": null, "country": "US", "postalCode": null }, "geometry": { "type": "Point", "coordinates": [ -78.9206, 36.0073 ] } },
{ "type": "Feature", "properties": { "title": "University of Tennessee - Chattanooga (UTC)", "city": "Chattanooga", "province": null, "country": "US", "postalCode": null }, "geometry": { "type": "Point", "coordinates": [ -85.30111, 35.04576 ] } },
{ "type": "Feature", "properties": { "title": "University of California, Davis", "city": "Davis, California", "province": null, "country": "US", "postalCode": null }, "geometry": { "type": "Point", "coordinates": [ -121.75051, 38.53623 ] } },
{ "type": "Feature", "properties": { "title": "James R. Slater Museum of Natural History", "city": "Tacoma, Washington", "province": null, "country": "US", "postalCode": null }, "geometry": { "type": "Point", "coordinates": [ -122.48033, 47.26124 ] } },
{ "type": "Feature", "properties": { "title": "Academy of Natural Sciences", "city": "Philadelphia", "province": null, "country": "US", "postalCode": null }, "geometry": { "type": "Point", "coordinates": [ -75.17133, 39.95788 ] } },
{ "type": "Feature", "properties": { "title": "Illinois Natural History Survey", "city": "Champaign", "province": null, "country": "US", "postalCode": null }, "geometry": { "type": "Point", "coordinates": [ -88.27107, 40.1128 ] } },
{ "type": "Feature", "properties": { "title": "Brigham Young University Life Science Museum", "city": "Provo", "province": "Utah", "country": "US", "postalCode": "84602" }, "geometry": { "type": "Point", "coordinates": [ -111.64771, 40.25295 ] } }
]
}
